stop_id,stop_name,stop_lat,stop_lon,stop_code
1,Capitol Way at 4th Ave,47.044418,-122.901711,1
10,Capitol Blvd at Carlyon Ave,47.020730,-122.897150,10
100,Crosby Blvd at Somerset Hill Dr,47.020500,-122.926353,100
1006,4th Ave at Wilson St,47.045947,-122.872672,1006
1008,College St at Martin Way,47.047287,-122.823303,1008
101,Barnes Blvd at Ridgeview Loop,47.017628,-122.920486,101
1011,Orion Dr at Polaris Ln,47.072659,-122.741959,1011
1012,9050 Orion Dr,47.075497,-122.744606,1012
1013,Willamette Dr at 31st Ave,47.076771,-122.751762,1013
1014,Orion Dr at Willamette Dr,47.075836,-122.749886,1014
1015,Willamette Dr at Borealis Ct,47.072643,-122.752205,1015
1016,Willamette Dr at Commerce Pl,47.070862,-122.757332,1016
1017,Willamette Dr at Hogum Bay Rd,47.069473,-122.765816,1017
1018,Providence Medical Group,47.070335,-122.772636,1018
1019,Quinalt Dr at Galaxy Dr,47.061283,-122.767181,1019
102,Overlook Point Park,47.016403,-122.918152,102
1021,Cooper Point Dr at Evergreen Park Dr [nb,47.027935,-122.924545,1021
1022,Cooper Point Dr at Evergreen Park Dr [sb,47.027287,-122.923920,1022
1025,Kaiser Rd at Greenwood Dr,47.043373,-122.960495,1025
1026,Harrison Ave at Twin Flowers St,47.047169,-122.958183,1026
1027,Capital Medical Center,47.041515,-122.950966,1027
1029,Marvin Rd at Britton Pkwy,47.068401,-122.770447,1029
103,Barnes Blvd at Vista Loop,47.015278,-122.915154,103
1030,Harrison Ave at Kaiser Rd,47.046967,-122.959633,1030
1031,Harrison Ave at Yauger Way,47.046997,-122.948975,1031
1033,Harrison Ave at Cooper Point Rd,47.047207,-122.942032,1033
1034,Harrison Ave at Yauger Way,47.047215,-122.950439,1034
1035,Quixote Village,47.025398,-122.942978,1035
1036,Martin Way at I-5,47.048859,-122.817879,1036
1037,Crites St at 26th Ave,47.024078,-122.946465,1037
1038,29th Ave at Ferguson St,47.021812,-122.944588,1038
1039,Yelm Hwy at Powerhouse Ln,46.968376,-122.638031,1039
104,7th Ave at I St,47.008472,-122.913048,104
1040,Yelm Hwy at Powerhouse Ln,46.968506,-122.638016,1040
1041,7th Ave at Fieldstone Dr,47.041855,-122.956329,1041
1042,7th Ave at Fieldstone Dr,47.041962,-122.956352,1042
1043,4th Ave at Washington St,47.044926,-122.900597,1043
1044,Carpenter Rd at 9th Ln,47.056160,-122.796463,1044
1045,Britton Place Apts,47.064980,-122.794388,1045
1046,Britton Pkwy at Gateway Blvd,47.068321,-122.787064,1046
1047,Britton Pkwy at Marvin Rd,47.068150,-122.773064,1047
1048,Willamette Dr at Marvin Rd,47.069248,-122.769669,1048
1049,Willamette Dr at Hogum Bay Rd,47.069279,-122.763077,1049
105,2nd Ave at I St,47.007980,-122.908585,105
1050,Willamette Dr at Commerce Place,47.070610,-122.757141,1050
1051,Willamette Dr at Borealis Ct,47.072361,-122.752113,1051
1052,Willamette Dr at 31st Ave,47.076542,-122.751183,1052
1053,Meridian Campus Ctr,47.078701,-122.752052,1053
1054,Willamette Dr at Madrid St,47.084751,-122.754761,1054
1055,Willamette Dr at Meriwood Dr,47.090160,-122.757919,1055
1056,41st Ave at Whidbey Rd,47.090450,-122.764549,1056
1057,41st Ave at Vashon Dr,47.090469,-122.768257,1057
1058,41st Ave at Edgewater Blvd,47.090519,-122.777039,1058
1059,Marvin Rd at 41st Ave,47.089710,-122.780853,1059
106,2nd Ave at C St,47.013779,-122.906677,106
1060,Marvin Rd at Spencer Ave,47.085449,-122.780861,1060
1061,Target Dist Ctr,47.083920,-122.776680,1061
1062,Hawks Prairie Rd at Hogum Bay Rd,47.082951,-122.768318,1062
1063,Hogum Bay Rd at 31st Ave,47.078140,-122.764771,1063
1064,Hogum Bay Rd at 30th Ave,47.073719,-122.763863,1064
1065,Britton Pkwy at Marvin Rd,47.068401,-122.772888,1065
1066,Britton Pkwy at Callison Rd,47.068508,-122.781189,1066
1067,Britton Pkwy at Gateway Blvd,47.068440,-122.787622,1067
1068,Britton Place Apts,47.065071,-122.794670,1068
1069,Carpenter Rd at 9th Ln,47.057121,-122.796768,1069
107,2nd Ave at Division St,47.015377,-122.906654,107
1070,Carpenter Rd at Martin Way,47.051319,-122.796539,1070
1071,SPSCC Mottman Entrance,47.025455,-122.928917,1071
1072,Mottman Rd at Firland St,47.025436,-122.934929,1072
1073,Mottman Rd at Firland St,47.025223,-122.936287,1073
1074,SPSCC Mottman Entrance,47.025318,-122.928581,1074
1075,Hogum Bay Rd at Campus Glen Dr,47.081394,-122.765198,1075
1076,Martin Way Park & Ride Flyer Stop,47.049576,-122.816658,1076
1077,Capitol Blvd at Tumwater Valley Dr [Sout,47.009792,-122.906055,1077
1078,Capitol Blvd at Tumwater Valley Dr [Nort,47.009346,-122.905878,1078
109,North St at Cleveland Ave,47.016563,-122.896492,109
11,Capitol Blvd at E St,47.011021,-122.905289,11
110,North St at Lorne St,47.016575,-122.893410,110
111,North St at Pear St,47.016541,-122.889053,111
112,Olympia High School,47.016529,-122.884804,112
113,North St at Central St,47.016518,-122.882339,113
114,Henderson Blvd at North St,47.016220,-122.879333,114
115,Henderson Blvd at Middle St,47.012791,-122.879356,115
116,Henderson Blvd at Briggs Dr,47.007656,-122.881081,116
117,Henderson Blvd at Yelm Hwy,47.005028,-122.881081,117
118,Yelm Hwy at Village Dr,47.003471,-122.875427,118
119,Yelm Hwy at Juli Ct,47.004616,-122.868820,119
12,Capitol Blvd at Linwood Ave,47.007477,-122.907310,12
120,Yelm Hwy at Boulevard Rd,47.003609,-122.865074,120
121,Yelm Hwy at Donovan Dr,47.001266,-122.859047,121
122,Yelm Hwy at Rich Rd,47.000629,-122.853996,122
123,Yelm Hwy at Chambers Creek Loop,47.000309,-122.852005,123
124,Yelm Hwy at Wiggins Rd,46.998089,-122.845062,124
125,Yelm Hwy at Donnelly Dr,46.997005,-122.841431,125
126,Yelm Hwy at Troon Ln,46.996204,-122.836433,126
127,Yelm Hwy at Chardonnay Dr,46.996189,-122.833473,127
129,Yelm Hwy at Sarazen St,46.996155,-122.818962,129
130,Yelm Hwy at Sarazen St,46.996342,-122.819496,130
131,Yelm Hwy at Corporate Center Dr,46.996380,-122.829399,131
132,Yelm Hwy at Chardonnay Dr,46.996380,-122.833481,132
133,Yelm Hwy at Normandy Dr,46.996483,-122.838486,133
134,Yelm Hwy at Donovan Dr,47.001564,-122.859985,134
135,Yelm Hwy at Wiggins Rd,46.998268,-122.844978,135
136,Yelm Hwy at Chambers Creek Loop,47.000530,-122.852295,136
137,Yelm Hwy at Rich Rd,47.001022,-122.855911,137
138,Yelm Hwy at Donnelly Dr,46.997395,-122.842117,138
139,Yelm Hwy at Boulevard Rd,47.004494,-122.866524,139
14,Linwood Ave at Liberty St,47.007416,-122.920631,14
140,Yelm Hwy at Juli Ct,47.004795,-122.869469,140
141,Yelm Hwy at Village Dr,47.003651,-122.875938,141
142,Henderson Blvd at Yelm Hwy,47.005051,-122.880798,142
143,Henderson Blvd at Briggs Dr,47.007668,-122.880814,143
144,Henderson Blvd at Middle St,47.013264,-122.879166,144
145,North St at Central St,47.016613,-122.882462,145
146,Olympia High School,47.016624,-122.884239,146
147,North St at Hawthorne Pl,47.016632,-122.887001,147
148,North St at Hoadly St,47.016634,-122.890532,148
149,North St at Lorne St,47.016647,-122.893089,149
15,Linwood Ave at Rural Rd,47.007416,-122.925858,15
150,North St at Cleveland Ave,47.016663,-122.896500,150
151,Friendly Grove at 26th Ave,47.068542,-122.871323,151
152,26th Ave at Bethel St,47.068886,-122.883583,152
153,Bethel St at Brandon Ct,47.067284,-122.884697,153
154,Bethel St at Devon Ct,47.065765,-122.884705,154
155,Bethel St at Miller Ave,47.061703,-122.884796,155
156,Bethel St at Ethridge Ave,47.059883,-122.884811,156
157,Bethel St at San Francisco Ave,47.057686,-122.884888,157
158,Puget St at San Francisco Ave,47.056915,-122.887482,158
159,Puget St at Leavenworth Ave,47.055328,-122.887512,159
16,Rural Rd at 48th Ave,47.004730,-122.926788,16
160,Puget St at Pine Ave,47.053467,-122.887505,160
161,Puget St at Yew Ave,47.051430,-122.887688,161
162,Puget St at Bigelow Ave,47.049782,-122.887695,162
163,Puget St at Thurston Ave,47.048470,-122.887558,163
164,State Ave at Eastside St,47.046638,-122.889458,164
165,State Ave at East Bay Dr,47.046360,-122.893753,165
166,State at Cherry,47.046204,-122.896172,166
167,Olympia Transit Center,47.046299,-122.900032,167
168,4th at Adams,47.045139,-122.897659,168
169,4th Ave at Pear St,47.045513,-122.891594,169
17,Rural Rd at Trosper Rd,47.000557,-122.926826,17
170,Puget St at Thurston Ave,47.048683,-122.887421,170
171,Puget St at Bigelow Ave,47.050018,-122.887512,171
172,Bigelow Ave at Garrison St,47.050098,-122.884239,172
173,Bigelow Ave at Central St,47.050087,-122.881493,173
174,Fir St at Bigelow Ave,47.050385,-122.877304,174
175,Pine Ave at McCormick St,47.053627,-122.878372,175
176,Pine Ave at Lybarger St,47.053638,-122.880600,176
177,Central St at Pine Ave,47.053802,-122.882401,177
178,Central St at Massey Ave,47.058357,-122.882439,178
179,Central St at Ethridge Ave,47.060753,-122.882362,179
18,Trosper Rd at Commander Dr,46.999920,-122.925100,18
180,Miller Ave at McCormick St,47.061958,-122.877533,180
181,Miller Ave at Ann St,47.061943,-122.872742,181
182,2242 Friendly Grove Rd,47.064648,-122.871384,182
183,Lacey Transit Center,47.042660,-122.829559,183
184,6th Ave at Sleater Kinney Rd,47.043373,-122.831932,184
185,Sleater Kinney Rd at 6th Ave,47.042767,-122.833954,185
186,Sleater Kinney Rd at Pacific Ave,47.040241,-122.833839,186
187,Sleater Kinney Rd at 12th Ave,47.037552,-122.833870,187
188,Sleater Kinney Rd at 14th Ave,47.034832,-122.833862,188
189,Capitol Club Apts,47.034306,-122.837654,189
19,Trosper Rd at Lake Park Dr,46.999870,-122.918144,19
190,Colonial Estates MHP,47.034328,-122.841873,190
191,18th Ave at Fones Rd,47.032581,-122.848152,191
192,18th Ave at Craig Rd,47.032612,-122.855186,192
193,18th Ave at Kempton St,47.032639,-122.853119,193
194,18th Ave at Allen Rd,47.032604,-122.857399,194
195,18th Ave at Amhurst St,47.032627,-122.859230,195
196,18th Ave at Karen Frazier Rd,47.032696,-122.862617,196
197,Boulevard Rd at 18th Ave,47.033062,-122.866539,197
198,Boulevard Rd at 15th Ave,47.037067,-122.868917,198
199,Boulevard Rd at 12th Ave,47.039108,-122.868988,199
2,Capitol Way at Legion Way,47.042889,-122.901489,2
20,Olympics West Retirement Inn,46.999912,-122.921021,20
200,Boulevard Rd at Union Ave,47.041031,-122.868973,200
201,9th Ave at Sawyer St,47.041775,-122.870995,201
202,Frederick St at Union Ave,47.040428,-122.871742,202
203,Union Ave at Fairview St,47.039936,-122.874344,203
204,Union Ave at Lybarger St,47.040146,-122.880066,204
205,10th Ave at Central St,47.041019,-122.882431,205
206,St. Michael Church,47.040897,-122.886414,206
207,Eastside St at 9th Ave,47.041813,-122.887863,207
208,8th Ave at Pear St,47.042236,-122.891243,208
209,8th Ave at Chestnut St,47.042046,-122.894142,209
21,Littlerock Rd at Trosper Rd,46.998329,-122.917000,21
210,8th Ave at Adams St,47.041809,-122.897789,210
211,Franklin St at Legion Ave,47.043613,-122.898926,211
212,Franklin St at Legion Ave,47.043194,-122.899017,212
213,8th Ave at Franklin St,47.041618,-122.898262,213
214,8th Ave at Chestnut St,47.041927,-122.893776,214
215,8th Ave at Pear St,47.042141,-122.891052,215
216,Eastside St at 8th Ave,47.041866,-122.888039,216
217,St. Michaels Church,47.040780,-122.886480,217
218,10th Ave at Central St,47.040951,-122.882553,218
219,Union Ave at Lybarger St,47.040070,-122.879982,219
22,Twin Star Plaza,46.996742,-122.919014,22
220,Union Ave at Wilson St,47.039856,-122.873825,220
221,Frederick St at Union Ave,47.040565,-122.871628,221
222,9th Ave at Frederick St,47.041637,-122.871124,222
223,Boulevard Rd at Union Ave,47.040741,-122.869156,223
224,Boulevard Rd at 12th Ave,47.038673,-122.869148,224
225,Boulevard Rd at 15th Ave,47.036415,-122.868820,225
226,18th Ave at Boulevard Rd,47.032494,-122.864525,226
227,18th Ave at Karen Frazier Rd,47.032551,-122.862602,227
228,18th Ave at Amhurst St,47.032536,-122.859840,228
229,18th Ave at Allen Rd,47.032528,-122.857361,229
23,Littlerock at Kingswood Dr,46.994904,-122.921722,23
230,18th Ave at Craig Rd,47.032494,-122.855362,230
231,18th Ave at Kempton St,47.032471,-122.852386,231
232,18th Ave at Hoffman Rd,47.032425,-122.848602,232
233,Elizabeth St at 18th Ave,47.032990,-122.844200,233
234,Colonial Estates MHP,47.034199,-122.841240,234
235,Hacienda Apts,47.034191,-122.837440,235
236,Sleater Kinney Rd at 14th Ave,47.034641,-122.833717,236
237,Sleater Kinney Rd at Lacey Blvd,47.037941,-122.833687,237
238,Sleater Kinney Rd at Pacific Ave,47.039879,-122.833679,238
239,Sleater Kinney Rd at 7th Ave,47.041882,-122.833649,239
24,Tumwater Middle School,46.992085,-122.923538,24
241,Evergreen Library Loop,47.071983,-122.977127,241
242,Evergreen Pkwy at Overhulse Rd,47.069763,-122.969688,242
243,Kaiser Rd at Driftwood Rd,47.071907,-122.955559,243
244,Kaiser Rd at Cedrona Dr,47.073605,-122.952080,244
245,College Court Apts,47.075268,-122.949600,245
246,Kaiser Rd at Cooper Point Rd,47.075539,-122.944206,246
247,Cooper Point Rd at 29th Ave,47.073669,-122.943047,247
248,28th Ave at Cooper Point Rd,47.071133,-122.941612,248
249,28th Ave at Division St,47.071125,-122.935410,249
25,Littlerock Rd at Odegard Rd,46.989471,-122.927231,25
250,Division St at 26th Ave,47.069016,-122.931183,250
251,Butler Cove Apts,47.066357,-122.929459,251
252,Division St at Burbank Ave,47.064888,-122.929001,252
253,Division St at Elliott Ave,47.063358,-122.928459,253
254,Division St at Muirhead Ave,47.059174,-122.925713,254
255,Division St at Walnut Rd,47.057350,-122.925659,255
256,Division St at Dickinson Ave,47.054939,-122.925636,256
257,Division St at Bowman Ave,47.053246,-122.925652,257
258,Division St at Conger Ave,47.051334,-122.925758,258
259,Division St at Madison Ave,47.049561,-122.925842,259
26,Littlerock Rd at Glenwood Dr sb],46.987907,-122.929451,26
260,Division St at Garfield Ave,47.047375,-122.925919,260
261,Harrison Ave at Division St,47.045910,-122.925110,261
262,Harrison Ave at Decatur St,47.045887,-122.922760,262
263,Harrison Ave at Plymouth St,47.045860,-122.919998,263
264,Harrison Ave at Foote St,47.045776,-122.915245,264
265,5th Ave at Sylvester St,47.043684,-122.905502,265
266,Columbia St at State Ave,47.046032,-122.903000,266
267,5th Ave at Sylvester St,47.043808,-122.905922,267
268,5th Ave at Deschutes Pkwy,47.043652,-122.908066,268
269,Harrison Ave at Percival St,47.045925,-122.916389,269
27,Israel Rd at Littlerock Rd,46.985409,-122.931084,27
270,Harrison Ave at Plymouth St,47.045940,-122.918617,270
271,Harrison Ave at Perry St,47.046009,-122.920486,271
272,Harrison Ave at Milroy St,47.046043,-122.923203,272
273,Division St at Harrison Ave,47.046608,-122.925781,273
274,Division St at Madison Ave,47.049675,-122.925682,274
275,Division St at Giles Ave,47.052151,-122.925583,275
276,Division St at Bowman Ave,47.053398,-122.925522,276
277,Division St at Dickinson Ave,47.055042,-122.925484,277
278,Division St at Farwell Ave,47.056900,-122.925491,278
279,Division St at Muirhead Ave,47.059467,-122.925591,279
28,Linderson Way at Israel Rd,46.984810,-122.918404,28
280,Division St at Elliott Ave,47.063606,-122.928436,280
281,Division St at Burbank Ave,47.064941,-122.928879,281
282,Butler Cove Apts,47.066730,-122.929367,282
283,Division St at 26th Ave,47.069408,-122.931328,283
284,28th Ave at Division St,47.071201,-122.935577,284
285,28th Ave at Cooper Point Rd,47.071369,-122.941582,285
286,Cooper Point Rd at 29th Ave,47.073841,-122.942902,286
287,Kaiser Rd at Cooper Point Rd,47.075661,-122.943939,287
288,College Court Apts,47.075165,-122.949989,288
289,Kaiser Rd at Cedrona Dr,47.073982,-122.951782,289
29,Labor & Industries Building,46.982967,-122.920609,29
290,Maple Park Ave at Jefferson St,47.034004,-122.896332,290
291,Evergreen Maintenance,47.074699,-122.957558,291
292,Driftwood Rd at Wildcurrant Loop,47.075668,-122.968384,292
293,Driftwood Rd at Overhulse Rd,47.076084,-122.970367,293
294,Evergreen Dorms,47.075333,-122.973450,294
295,Driftwood Rd at Overhulse Rd,47.076077,-122.970757,295
296,Driftwood Rd at Wildcurrant Loop,47.075630,-122.967941,296
297,Overhulse Pl at Driftwood Rd,47.075047,-122.964378,297
298,Overhulse Pl at Fireweed Dr,47.071434,-122.969719,298
299,Evergreen Pkwy at Overhulse Pl,47.070045,-122.970047,299
3,Capitol Way at 9th Ave,47.040489,-122.901131,3
30,Linderson Way at Tumwater Blvd,46.981155,-122.918419,30
300,County Courthouse,47.029396,-122.913193,300
301,Deschutes Pkwy at Lakeridge Dr,47.032581,-122.910362,301
302,Capitol Lake,47.040829,-122.914253,302
303,Marathon Park,47.037399,-122.913101,303
304,Percival Cove,47.034657,-122.911430,304
305,Maple Park Ave at Capitol Way,47.033676,-122.900131,305
306,Maple Park Ave at Franklin St,47.033695,-122.897903,306
307,Jefferson St at Maple Park Ave,47.034317,-122.895653,307
31,Littlerock at Miner Dr,46.985940,-122.931590,31
310,Jefferson St at Union Ave,47.039623,-122.895821,310
311,Jefferson St at 9th Ave,47.040642,-122.895920,311
312,Eastside St at 12th Ave,47.037937,-122.887451,312
313,Jefferson St at 10th Ave,47.040306,-122.896088,313
316,Maple Park Ave at Franklin St,47.033886,-122.897980,316
317,Maple Park Ave at Capitol Way,47.033886,-122.899529,317
318,Percival Cove,47.034538,-122.911545,318
319,Marathon Park,47.037308,-122.913193,319
32,Littlerock Rd at McIver Ct,46.987797,-122.929268,32
320,Capitol Lake,47.040833,-122.914383,320
321,Deschutes Pkwy at Lakeridge Dr,47.032539,-122.910522,321
322,County Courthouse,47.028320,-122.913414,322
323,Capital Mall Station,47.042278,-122.932533,323
324,Kenyon St at 4th Ave,47.045040,-122.934212,324
325,Harrison Ave at Kenyon St,47.046291,-122.934715,325
326,2920 Harrison Ave,47.047184,-122.938583,326
327,Cooper Point Rd at Harrison Ave,47.045471,-122.941406,327
328,Cooper Point Rd at 12th Ave,47.036835,-122.939331,328
329,Cooper Point Rd at Black Lake Blvd,47.034149,-122.937340,329
33,Littlerock Rd at Odegard Rd,46.989269,-122.927208,33
330,Central Park Villa,47.031845,-122.935051,330
331,Cooper Point Rd at Carriage Dr,47.029808,-122.932541,331
332,Crosby Blvd at Mottman Rd,47.023388,-122.923279,332
333,Crosby Blvd at Mottman Rd,47.023041,-122.922981,333
334,Evergreen Park Dr at S Evergreen Park Dr,47.028385,-122.922310,334
335,Sherwood Glen Apts,47.030430,-122.919243,335
336,Heritage Park Apts,47.030777,-122.917374,336
337,Westlake Apts,47.029842,-122.915283,337
338,S. Evergreen Park Dr at 24th Way,47.028000,-122.914902,338
339,Regency Apts,47.030083,-122.915237,339
34,Tumwater Middle School,46.991329,-122.924210,34
340,Heritage Park Apts,47.030853,-122.916817,340
341,Broadmoor West,47.030727,-122.919006,341
342,Evergreen Park Dr at S. Evergreen Park D,47.028427,-122.922684,342
343,Cooper Point Rd at Carriage Dr,47.030457,-122.933105,343
344,1800 Cooper Point Rd,47.032261,-122.935143,344
345,Cooper Point Rd at Black Lake Blvd,47.033688,-122.936241,345
346,Cooper Point Rd at 12th Ave,47.037704,-122.939018,346
347,Cooper Point Rd at Capital Mall Dr,47.041138,-122.939102,347
348,Capital Medical Center,47.041843,-122.951859,348
35,Twin Star Plaza,46.996712,-122.918411,35
354,Capital Mall Dr at Courtside St,47.041027,-122.948219,354
355,Capital Mall Dr at Archwood Dr W,47.039837,-122.945236,355
356,Capital Mall Dr at Archwood Dr E,47.039806,-122.942726,356
358,Capital Village,47.045109,-122.941109,358
359,Cooper Point Rd at Harrison Ave,47.047611,-122.941109,359
36,Littlerock Rd at Trosper Rd,46.998177,-122.916771,36
360,Cooper Point Rd at Conger Ave,47.051979,-122.941116,360
361,Conger Ave at Wily St,47.051514,-122.938065,361
362,Capital High School,47.051567,-122.933632,362
363,Conger Ave at Cardigan St,47.051571,-122.930878,363
364,Jefferson Middle School,47.051514,-122.928108,364
365,Bowman Ave at Milroy St,47.053543,-122.922783,365
366,Bowman Ave at Rogers St,47.053535,-122.919090,366
367,Rogers St at Conger Ave,47.051083,-122.918526,367
368,Rogers St at Jackson Ave,47.048252,-122.917854,368
369,Garfield Ave at Plymouth St,47.047249,-122.919495,369
37,Trosper Rd at 2nd Ave,47.000038,-122.917259,37
370,Rogers St at Harrison Ave,47.046242,-122.917801,370
371,Rogers St at Jackson Ave,47.048664,-122.917732,371
372,Rogers St at Conger Ave,47.050812,-122.918411,372
373,Bowman Ave at Rogers St,47.053593,-122.918938,373
374,Bowman Ave at Milroy St,47.053612,-122.922707,374
375,Jefferson Middle School,47.051632,-122.927948,375
376,Conger Ave at Cardigan St,47.051651,-122.932358,376
377,Capital High School,47.051632,-122.934532,377
378,Conger Ave at Wily St,47.051582,-122.938454,378
379,Conger Ave at Cooper Point Rd,47.051586,-122.940239,379
38,Tumwater Mobile Estates,47.000046,-122.921333,38
380,Cooper Point Rd at Conger Ave,47.051037,-122.941330,380
381,Cooper Point Rd at Capital Mall Dr,47.040390,-122.939339,381
382,Elizabeth St at 14th Ave,47.033562,-122.844345,382
383,Capital Mall Dr at Archwood Dr E,47.039959,-122.942322,383
384,Capital Mall Dr at Alta St,47.039951,-122.944725,384
385,Capital Mall Dr at Courtside St,47.041393,-122.948868,385
386,Harrison Ave at Kenyon St,47.046066,-122.933212,386
387,2303 Harrison Ave,47.045961,-122.928801,387
39,Western Plaza Mobile Home Park,47.000057,-122.925682,39
390,Black Lake Blvd at Capital Mall entrance,47.041821,-122.929405,390
391,9th Ave at Black Lake Blvd,47.039787,-122.930801,391
392,9th Ave at Fern St,47.039780,-122.928230,392
393,Village Garden Apts,47.039791,-122.926071,393
394,Decatur St at 9th Ave,47.040039,-122.922630,394
395,Decatur St at 7th Ave,47.041958,-122.922569,395
396,5th Ave at Decatur St,47.043484,-122.922279,396
397,5th Ave at Thomas St,47.043419,-122.920532,397
398,5th Ave at Rogers St,47.043404,-122.918129,398
399,Sherman St at 4th Ave,47.044121,-122.914688,399
4,Capitol Way at Union Ave,47.039261,-122.900948,4
40,Rural Rd at Trosper Rd,47.001152,-122.926659,40
400,Sherman St at 4th Ave,47.044079,-122.915001,400
401,5th Ave at Percival St,47.043468,-122.917023,401
402,5th Ave at Plymouth St,47.043514,-122.920151,402
403,Decatur St at 5th Ave,47.043297,-122.922646,403
404,Decatur St at 7th Ave,47.041763,-122.922707,404
405,9th Ave at Decatur St,47.039880,-122.923673,405
406,9th Ave at Cushing St,47.039890,-122.925232,406
407,9th Ave at Soroya St,47.039902,-122.927780,407
408,9th Ave at Black Lake Blvd,47.039902,-122.930557,408
409,Capital Place,47.041454,-122.929466,409
41,Rural Rd at 48th Ave,47.004430,-122.926580,41
410,Black Lake Blvd at 4th Ave,47.044048,-122.926392,410
411,Harrison Ave at Division St,47.046131,-122.926704,411
412,2400 Harrison Ave,47.046200,-122.930717,412
413,Cooper Point Rd at 20th Ave,47.063457,-122.941910,413
414,Cooper Point Rd at 14th Ave,47.058468,-122.941284,414
415,Cooper Point Rd at Sarah Ct,47.053818,-122.941322,415
416,Cooper Point Rd at Sarah Ct,47.053932,-122.941193,416
417,Cooper Point Rd at Walnut Rd,47.057724,-122.941124,417
418,Cooper Point Rd at 20th Ave,47.063507,-122.941742,418
42,Linwood Ave at Rural Rd,47.007355,-122.925812,42
422,Legion Way at Eastside St,47.044090,-122.887741,422
423,Legion Way at Boundary St,47.044353,-122.884499,423
424,Pacific Ave at Sleater Kinney Rd,47.039497,-122.834724,424
425,South Sound Center,47.040222,-122.837776,425
426,Pacific Ave at Birch St,47.040878,-122.840462,426
427,Pacific Ave at Weir St,47.041462,-122.842598,427
43,Linwood Ave at Liberty St,47.007340,-122.921160,43
430,Lilly Rd at Mary Elder Rd,47.048542,-122.844353,430
431,Lilly Rd at Ensign Rd,47.050781,-122.844315,431
432,Lilly Rd at 10th Ave,47.053486,-122.844307,432
433,Lilly Rd at 12th Ave,47.056915,-122.844322,433
434,Kaiser Permanente Bldg.,47.057659,-122.841820,434
435,Lilly Rd at 12th Ave,47.055721,-122.844498,435
436,Providence St. Peter Medical Center,47.053181,-122.844490,436
437,Ensign Rd at Lilly Rd,47.051086,-122.844902,437
438,Providence St. Peter Emergency,47.051109,-122.847969,438
439,Ensign Rd at Providence Ln,47.050388,-122.851280,439
44,Linwood Ave at G St,47.007263,-122.916656,44
440,Animal Services,47.046663,-122.855108,440
441,Martin Way at Pattison St,47.046450,-122.858310,441
442,Martin Way at Phoenix St,47.046150,-122.862999,442
443,Pacific Ave at Phoenix St,47.044971,-122.865967,443
444,Boulevard Rd at 7th Ave,47.043922,-122.869186,444
445,"7th Ave at Wilson St, Lions Park",47.043571,-122.873001,445
446,7th Ave at Fairview St,47.043549,-122.876030,446
447,Legion Way at McCormick St,47.044415,-122.878693,447
448,Legion Way at Boundary St,47.044357,-122.885269,448
449,Legion Way at Eastside St,47.044117,-122.888664,449
45,Linwood Ave at 6th Ave,47.007206,-122.912399,45
453,Legion Way at McCormick St,47.044312,-122.878654,453
454,7th Ave at Fairview St,47.043476,-122.875946,454
455,"7th Ave at Wilson St, Lions Park",47.043495,-122.872635,455
456,Boulevard Rd at 7th Ave,47.043682,-122.869011,456
457,Pacific Ave at Chambers St,47.045242,-122.867836,457
458,Martin Way at Phoenix St,47.045898,-122.864059,458
459,Martin Way at Pattison St,47.046190,-122.858509,459
46,Capitol Blvd at Linwood Ave,47.007360,-122.907110,46
460,3025 Martin Way,47.046425,-122.855179,460
461,Ensign Rd at Providence Ln,47.050556,-122.850609,461
462,Ensign Medical Center,47.051010,-122.847321,462
463,Ensign Rd at Lilly Rd,47.050957,-122.845085,463
464,Lilly Rd at Ensign Rd,47.050861,-122.844536,464
465,Lilly Rd at Mary Elder Rd,47.048733,-122.844612,465
468,Pacific Ave at Poplar St,47.041100,-122.841972,468
469,3801 Pacific Ave,47.040306,-122.838997,469
47,Capitol Blvd at E,47.012138,-122.904282,47
470,South Sound Center,47.039600,-122.835945,470
471,7th Ave at Sleater-Kinney Rd,47.041840,-122.831696,471
472,Panorama,47.030632,-122.833687,472
473,Lakewood Station Bay 5,47.152885,-122.498665,473
474,Lakewood Station,47.152714,-122.498947,474
475,Yelm Ave at Tahoma Blvd,46.947662,-122.617165,475
476,Yelm Ave at Killion Rd,46.948170,-122.617851,476
477,Golf Club Rd at 19th Ave,47.029530,-122.828590,477
478,Golf Club Rd at 16th Ave,47.032211,-122.828598,478
479,Golf Club Rd at 14th Ave,47.034397,-122.828590,479
48,Tumwater Square,47.018047,-122.898529,48
480,4th Ave at Eastside St,47.045799,-122.888260,480
481,4th Ave at Boundary St,47.046021,-122.884827,481
482,4th Ave at Central St,47.045994,-122.880932,482
483,4th Ave at McCormick St,47.045990,-122.878708,483
484,4th Ave at Fairview St,47.045998,-122.875320,484
485,4th Ave at Chambers St,47.045933,-122.868591,485
486,3335 Martin Way,47.046791,-122.850342,486
487,Martin Way at Lilly Rd,47.047176,-122.843498,487
488,3775 Martin Way,47.047394,-122.840538,488
489,Martin Way at Sleater Kinney,47.047699,-122.835854,489
49,Capitol Blvd at Carlyon Ave,47.020650,-122.897130,49
491,Martin Way at College St,47.048359,-122.825928,491
492,Martin Way at Desmond Dr,47.049381,-122.808685,492
493,6127 Martin Way,47.049976,-122.800652,493
494,Martin Way at Carpenter Rd,47.050381,-122.795975,494
495,Martin Way at Kinwood St,47.051495,-122.790207,495
496,Tanglewilde Shopping Center,47.052513,-122.785301,496
497,Martin Way at Ranger Dr,47.053120,-122.782036,497
498,Martin Way at Kingham St,47.054272,-122.776421,498
499,Martin Way Plaza,47.055046,-122.772614,499
5,Capitol Way at 11th Ave,47.037819,-122.901024,5
50,Capitol Blvd at Eskridge Way,47.023327,-122.895828,50
500,Martin Way at Marvin Rd,47.056824,-122.763718,500
501,Martin Way at Gerald St,47.057770,-122.759270,501
502,Martin Way at Hoh St,47.058590,-122.754929,502
503,Martin Way at Blackhawk Ln,47.059013,-122.752296,503
504,Martin Way at River Ridge Dr,47.059750,-122.749080,504
505,Martin Way at Copper Wood Ln,47.060841,-122.743675,505
506,Meridian Rd at 4th Ave,47.063061,-122.741394,506
507,"Golf Club Rd, Community Garden",47.030869,-122.828590,507
51,Capitol Way at 24th Ave,47.027813,-122.900734,51
515,Martin Way at Marvin Rd,47.056641,-122.766022,515
516,Martin Way Plaza,47.055130,-122.773323,516
517,Martin Way at Kingham St,47.054210,-122.778020,517
518,Martin Way at Hensley St,47.053005,-122.784012,518
519,7028 Martin Way,47.052441,-122.786865,519
52,Capitol Way at 21st Ave,47.030445,-122.900734,52
520,5780 Martin Way,47.050198,-122.800766,520
521,Martin Way at Desmond Dr,47.049591,-122.810699,521
522,Martin Way P&R,47.049297,-122.814919,522
523,Martin Way at College St,47.048637,-122.825409,523
524,Martin Way Station,47.048237,-122.831253,524
525,Martin Way at Sleater Kinney Rd,47.047955,-122.835564,525
526,3924 Martin Way,47.047729,-122.838051,526
527,3700 Martin Way,47.047516,-122.842041,527
528,Martin Way at Lilly Rd,47.047298,-122.845215,528
529,Martin Way at Mary Elder Rd,47.047016,-122.849166,529
53,Capitol Way at 18th Ave,47.031948,-122.900719,53
530,4th Ave at Chambers St,47.046139,-122.869263,530
531,Pacific Ave at Sawyer St,47.046432,-122.872009,531
532,State Ave at Turner St,47.046963,-122.876755,532
533,State Ave at McCormick St,47.046978,-122.879692,533
534,State Ave at Central St,47.046925,-122.882980,534
535,State Ave at Bethel St,47.046890,-122.884964,535
536,Marvin Rd at Martin Way,47.054600,-122.764755,536
537,Marvin Rd at 3rd Ave,47.052624,-122.764755,537
538,Marvin Rd at Steilacoom Rd,47.049301,-122.764938,538
539,Steilacoom Rd at Marvin Rd,47.047286,-122.760902,539
54,Capitol Way at Maple Park Ave,47.034203,-122.900719,54
540,Rainier Vista MHP,47.047760,-122.757004,540
541,Steilacoom Rd at Pine Crest Dr,47.048931,-122.752953,541
542,Steilacoom Rd at Fleming Way,47.051058,-122.746671,542
543,Deerbrush Dr at Steilacoom Rd,47.051468,-122.741669,543
544,Deerbush Dr at 7th Ct,47.049606,-122.741119,544
545,Meadows Elementary School,47.047722,-122.741631,545
546,Deerbrush Dr at Pinedrop Dr,47.046879,-122.742432,546
547,Deerbrush Dr at Shadberry Dr,47.044750,-122.744675,547
548,Deerbrush Dr at Rockcress Dr,47.042534,-122.744347,548
549,Deerbrush Dr at Clover Dr,47.040512,-122.742813,549
55,Capitol Way at 11th Ave,47.037231,-122.900703,55
550,Deerbrush Dr at Goldenrod Dr,47.039150,-122.742233,550
551,Rockcress Dr at Deerbrush Dr,47.038120,-122.741142,551
552,Rockcress Dr at Pacific Ave,47.037079,-122.742760,552
553,Pacific Ave at Rockcress Dr,47.036560,-122.745390,553
554,Pacific Ave at Chatham Dr,47.036915,-122.750854,554
555,Pacific Ave at 15th Ave,47.037033,-122.758278,555
556,Pacific Ave at Sitka Dr,47.038052,-122.760956,556
557,Marvin Rd at 9th Ave,47.040215,-122.764824,557
558,Marvin Rd at 8th Ave,47.043224,-122.764801,558
559,Marvin Rd at Steilacoom Rd,47.048157,-122.764565,559
56,Capitol Way at Union Ave,47.039383,-122.900749,56
560,Marvin Rd at 3rd Ave,47.052654,-122.764465,560
561,Marvin Rd at Martin Way,47.055065,-122.764420,561
562,Pacific Ave at Phoenix St,47.044327,-122.864143,562
563,Pacific Ave at Devoe St,47.043213,-122.860527,563
564,Pacific Ave at Pattison St,47.042675,-122.857635,564
565,Pacific Ave at Fones Rd,47.041695,-122.845863,565
566,6th Ave at Golf Club Rd,47.043251,-122.827782,566
567,6th Ave at College St,47.043213,-122.823883,567
568,College St at Woodland Square Loop,47.040508,-122.823387,568
569,College St at Pacific Ave,47.038410,-122.823410,569
57,Capitol Way at 9th Ave,47.041023,-122.901001,57
570,College St at 14th Ave,47.033894,-122.823380,570
571,College St at 15th Ave,47.032425,-122.823364,571
572,College St at 17th Ave,47.030518,-122.823387,572
573,College St at 22nd Ave,47.028015,-122.823387,573
574,College St at 23rd Ave,47.026131,-122.823395,574
575,College St at 26th Ave,47.023613,-122.823380,575
576,College St at 29th Ave,47.020939,-122.823341,576
577,College St at Montclair Dr,47.018734,-122.823273,577
578,College St at 32nd Ln,47.017128,-122.823273,578
579,College St at 37th Ave,47.014042,-122.823341,579
58,Capitol Way at 7th Ave,47.042767,-122.901299,58
580,College St at 39th Ave,47.011219,-122.823265,580
581,College St at 45th Ave,47.006069,-122.823334,581
582,Lacey Park Apts,47.003220,-122.823364,582
583,College St at Corporate Center Dr,47.000809,-122.823326,583
584,College St at Yelm Hwy,46.998051,-122.823349,584
585,College St at 41st Ave,47.009201,-122.823311,585
586,Yelm Hwy at Parkside Dr,46.996143,-122.815002,586
587,Yelm Hwy at Titleist Ln,46.996075,-122.809120,587
588,Yelm Hwy at Ruddell Rd,46.994247,-122.807335,588
589,Yelm Hwy at Balustrade Blvd,46.991440,-122.801102,589
59,Israel Rd at Littlerock Rd,46.985519,-122.931404,59
590,Amtrak Station,46.991245,-122.794434,590
591,Yelm Hwy at Compton Blvd,46.991379,-122.799866,591
592,Yelm Hwy at Crimson Ct,46.994492,-122.807198,592
593,Yelm Hwy at Mt Olympus St,46.996288,-122.811607,593
594,Yelm Hwy at Parkside Dr,46.996334,-122.815666,594
595,College St at Yelm Hwy,46.997982,-122.823021,595
596,College St at 51st Ln,47.001648,-122.823036,596
597,Lacey Park Apts,47.003246,-122.823036,597
598,College Pointe Apts,47.006008,-122.823029,598
599,College St at 45th Ave,47.008144,-122.823067,599
6,Capitol Way at 15th Ave,47.034363,-122.900848,6
60,Littlerock Rd at Kingswood Dr,46.994991,-122.921440,60
600,College St at 39th Ave,47.011417,-122.823051,600
601,College St at Mullen Rd,47.014648,-122.823029,601
602,3330 College St,47.017178,-122.823097,602
603,College St at 31st Ave,47.019146,-122.823105,603
604,College St at Belair Dr,47.020962,-122.823151,604
605,College St at 26th Ave,47.024139,-122.823212,605
606,College St at 24th Ave,47.026253,-122.823219,606
607,College St at 22nd Ave,47.028030,-122.823189,607
608,College St at 18th Ave,47.030766,-122.823189,608
609,College St at 16th Ave,47.032379,-122.823196,609
61,Tumwater Falls Park,47.013142,-122.903900,61
610,College St at 14th Ave,47.034168,-122.823189,610
611,College St at Pacific Ave,47.037964,-122.823135,611
612,College St at Woodland Square Lp,47.040432,-122.823166,612
613,6th Ave at College St,47.043377,-122.825142,613
614,6th Ave at Golf Club Rd,47.043350,-122.828293,614
615,Pacific Ave at Lilly Rd,47.041931,-122.845009,615
616,Pacific Ave at Pattison St,47.042980,-122.858276,616
617,Pacific Ave at Devoe St,47.043522,-122.861206,617
618,Ruddell Rd at 14th Ave,47.033638,-122.818047,618
619,Ruddell Rd at 16th Ave,47.031456,-122.817169,619
62,Capitol Blvd at Israel Rd,46.986286,-122.907394,62
620,Ruddell Rd at 19th Ave,47.029873,-122.815483,620
621,Ruddell Rd at 22nd Ave,47.026775,-122.812141,621
622,25th Ave at Sycamore St,47.025105,-122.809975,622
623,25th Ave at Angela St,47.025078,-122.808136,623
624,25th Ave at 25th Loop,47.025070,-122.805893,624
625,Lilac St at Shady Lane,47.026497,-122.804070,625
626,22nd Ave at Lilac St,47.027950,-122.804451,626
627,Creek St at Yelm Ave,46.933773,-122.590164,627
628,22nd Ave at Sycamore St,47.027786,-122.812035,628
629,Ruddell Rd at 27th Ave,47.023220,-122.810532,629
63,Capitol Blvd at Dennis St,46.988609,-122.907570,63
630,Ruddell Rd at 30th Ave,47.020569,-122.810326,630
631,Ruddell Rd at Ruddell Loop,47.017826,-122.810356,631
632,Ruddell Rd at Koala St,47.014324,-122.808792,632
633,Ruddell Rd at 39th Ave,47.012272,-122.808708,633
634,Ruddell Rd at 40th Ct,47.009670,-122.808685,634
635,Ruddell Rd at 45th Ave,47.007408,-122.808411,635
636,Ruddell Rd at 50th Ave,47.002171,-122.807648,636
637,Ruddell Rd at 54th Ave,46.999496,-122.807419,637
638,Ruddell Rd at Yelm Hwy,46.996914,-122.807442,638
639,Corporate Center Dr at College St,47.000614,-122.824089,639
64,Courtyard Plaza,46.991398,-122.907547,64
640,Corporate Center Dr at Intelco Lp,46.999992,-122.827309,640
641,Corporate Center Dr at Corporate Center,46.997944,-122.828812,641
642,Ruddell Rd at Yelm Hwy,46.996998,-122.807213,642
643,Ruddell Rd at 54th Ave,47.000053,-122.807098,643
644,Ruddell Rd at 50th Ave,47.003345,-122.807785,644
645,Ruddell Rd at 45th Ave,47.007553,-122.808128,645
646,Ruddell Rd at Mullen Rd,47.009598,-122.808449,646
647,Ruddell Rd at 39th Ave,47.012394,-122.808502,647
648,Ruddell Rd at 37th Ave,47.014675,-122.808746,648
649,Ruddell Rd at 32nd Ct,47.018089,-122.810226,649
65,Capitol Blvd and W St,46.993717,-122.907478,65
650,Ruddell Rd at 30th Ave,47.020927,-122.810165,650
651,Ruddell Rd at 27th Ave,47.023403,-122.810410,651
652,Ruddell Rd at 22nd Ave,47.028027,-122.813271,652
653,Ruddell Rd at 19th Ave,47.030174,-122.815567,653
654,Ruddell Rd at 16th Ave,47.031994,-122.817451,654
655,Ruddell Rd at 14th Ave,47.033672,-122.817879,655
656,Ruddell Rd at Pacific Ave,47.036449,-122.817886,656
657,Golf Club Rd at 10th Ave,47.039009,-122.828751,657
659,Lacey Village,47.036388,-122.825615,659
66,Capitol Blvd at U St,46.995220,-122.907471,66
660,Lacey Blvd at Violet St,47.035480,-122.821678,660
661,Lacey Blvd at Church St,47.034786,-122.816513,661
662,Lacey Blvd at Alder St,47.035309,-122.813576,662
663,Lacey Blvd at Lebanon St,47.035908,-122.810127,663
664,Lacey Blvd at Clearbrook,47.036381,-122.807480,664
665,Carpenter Rd at Pacific Ave,47.036847,-122.800656,665
667,Carpenter Rd at Diamond Rd,47.033703,-122.797104,667
668,1505 Carpenter Rd,47.032726,-122.791512,668
669,Carpenter Rd at Sierra Dr,47.030483,-122.791580,669
67,Capitol Blvd and Lee St,46.997578,-122.907608,67
670,Carpenter Rd at Holmes Island Rd,47.026966,-122.791634,670
671,Carpenter Rd at 27th Ln,47.022655,-122.791649,671
672,County Fairgrounds,47.019558,-122.788261,672
673,Carpenter Rd at Carpenter Lp,47.019516,-122.784065,673
674,Carpenter Rd at 33rd Ave,47.016735,-122.780937,674
675,Carpenter Rd at 38th Dr,47.012388,-122.780798,675
676,Carpenter Rd at 41st Ave,47.009811,-122.780701,676
677,Carpenter Rd at 45th Ave,47.006992,-122.780563,677
678,Carpenter Rd at Mullen Rd,47.005058,-122.780464,678
679,Mullen Rd at Timberline Dr,47.005451,-122.784668,679
68,Capitol 5000,47.002338,-122.909615,68
680,Mullen Rd at Glen Terra Dr,47.005047,-122.787979,680
681,Mullen Rd at Rumac St,47.004520,-122.790604,681
682,6500 Mullen Rd,47.004471,-122.796440,682
683,Timberline High School,47.006149,-122.800415,683
684,Mullen Rd at Ruddell Rd,47.008671,-122.804451,684
685,Mullen Rd at Ruddell Rd,47.008926,-122.806976,685
686,Timberline High School,47.006519,-122.801262,686
687,6435 Mullen Rd,47.004387,-122.796623,687
688,Mullen Rd at Rumac St,47.004391,-122.790588,688
689,Mullen Rd at Glen Terra Dr,47.005001,-122.787849,689
69,Olympia Farmers Market,47.050179,-122.902603,69
690,Mullen Rd at Timberline Dr,47.005173,-122.783691,690
691,Carpenter Rd at Bismarck Ln,47.036308,-122.800529,691
692,Carpenter Rd at 45th Ave,47.006943,-122.780342,692
693,Carpenter Rd at 41st Ave,47.009773,-122.780579,693
694,Carpenter Rd at 38th Ave,47.012386,-122.780632,694
695,Carpenter Rd at 33rd Ave,47.016815,-122.780769,695
696,Carpenter Rd at Carpenter Lp,47.019588,-122.784264,696
697,County Fairgrounds,47.019627,-122.788124,697
698,Carpenter Rd at Long Lake County Rd,47.023209,-122.791489,698
699,Carpenter at Holmes Island Rd,47.027168,-122.791489,699
7,Capitol Way at 18th Ave,47.032009,-122.900925,7
70,Capitol Way at A Ave,47.048546,-122.902100,70
700,Carpenter Rd at Sierra Dr,47.030521,-122.791405,700
701,1505 Carpenter Rd,47.032970,-122.791298,701
702,Carpenter Rd at Diamond Dr,47.033882,-122.797005,702
703,Pacific Ave at Carpenter Rd,47.037624,-122.801270,703
704,Golf Club Rd at 10th Ave,47.039387,-122.828598,704
705,Adams St at State Ave,47.045845,-122.898170,705
706,Adams St at Legion Ave,47.043266,-122.897758,706
707,Union Ave at Jefferson St,47.039276,-122.894951,707
708,Union Ave at Eastside St,47.039776,-122.887901,708
709,Eastside St at 18th Ave,47.032784,-122.886978,709
71,Capitol Way at A Ave,47.048690,-122.902370,71
710,22nd Ave at Boundary St,47.029537,-122.883453,710
711,22nd Ave at Fir St,47.029373,-122.876648,711
712,22nd Ave at Cain Rd,47.029358,-122.874184,712
713,22nd Ave at Nut Tree Lp,47.029030,-122.870392,713
714,Yelm Ave at Longmire St,46.945843,-122.613426,714
715,22nd Ave at Boulevard Rd,47.028984,-122.867554,715
716,Boulevard Rd at Holly Ln,47.027328,-122.865211,716
717,Boulevard Rd at Fox Ave,47.025143,-122.865250,717
718,Washington Middle School,47.020359,-122.865257,718
719,Boulevard Rd at Morse-Merryman Rd,47.017448,-122.865341,719
72,Southgate Center,47.001022,-122.909439,72
720,Boulevard Rd at 36th Ave,47.016079,-122.865311,720
721,Boulevard Rd at 42nd Ave,47.009747,-122.865349,721
722,Wilderness Dr at Boulevard Rd,47.007938,-122.864555,722
723,Yelm Hwy at Fair Oaks Rd,46.986069,-122.777657,723
724,Yelm Hwy at Spurgeon Creek Rd,46.984413,-122.767204,724
725,Yelm Hwy at Meridian Rd,46.985474,-122.741859,725
726,Yelm Hwy at Johnson Rd,46.985245,-122.722519,726
727,Yelm Hwy at Rehklau Rd,46.986980,-122.716965,727
728,Yelm Hwy at Braywood Ln W,46.993645,-122.706551,728
729,Yelm Hwy at Ruth Ct,47.005089,-122.696709,729
73,Capitol Blvd at Lee St,46.997364,-122.907753,73
730,Yelm Hwy at SR 510,47.007946,-122.689972,730
731,Yelm Hwy at Braywood Ln E,46.999031,-122.701797,731
732,Red Wind Casino,47.001404,-122.668938,732
733,Yelm Hwy at 89th Ave,46.958360,-122.632930,733
734,Southworth ES,46.970852,-122.642532,734
735,Yelm Hwy at Mudd Run Rd,46.964806,-122.632988,735
736,Yelm Ave at Burnett Rd,46.953209,-122.627388,736
737,Yelm Ave at 93rd Ave,46.951996,-122.625198,737
738,Yelm High School,46.950176,-122.621857,738
739,Yelm Ave at Cullens St,46.946091,-122.614243,739
74,Capitol Blvd at Pinehurst Dr,46.995487,-122.907738,74
740,Yelm Ave at Edwards St,46.942990,-122.608593,740
741,Yelm Ave at 3rd St,46.940807,-122.604584,741
744,Creek St at Algiers Rd,46.935574,-122.590088,744
745,Yelm Ave at Edwards St,46.943485,-122.609177,745
746,Yelm Ave at Cullens St,46.946869,-122.615379,746
747,Yelm High School,46.950310,-122.621864,747
748,Yelm Ave at 93rd Ave,46.952366,-122.625610,748
749,Yelm Ave at Burnett Rd,46.953648,-122.627953,749
75,6131 Capitol Blvd,46.993561,-122.907761,75
750,Yelm Hwy at Mudd Run Rd,46.964096,-122.632660,750
751,Southworth ES,46.970352,-122.641357,751
752,Yelm Hwy at 89th Ave,46.959070,-122.632780,752
753,Red Wind Casino,47.001778,-122.669586,753
754,Yelm Hwy at Braywood Ln E,46.998947,-122.702057,754
755,Yelm Hwy at SR 510,47.008060,-122.690086,755
756,Yelm Hwy at Gallup Dr,47.004517,-122.697922,756
757,Yelm Hwy at Braywood Ln W,46.992886,-122.707588,757
758,Yelm Hwy at Rehklau Rd,46.986645,-122.717812,758
759,Yelm Hwy at Lake St Clair Dr,46.985302,-122.723297,759
76,6330 Capitol Blvd,46.991524,-122.907784,76
760,Yelm Hwy at Meridian Rd,46.985661,-122.740315,760
761,Yelm Hwy at Spurgeon Creek Rd,46.984776,-122.769424,761
762,Yelm Hwy at Fair Oaks Rd,46.986286,-122.778000,762
763,Tumwater Blvd at Terminal St,46.980572,-122.909622,763
764,22nd Ave at Fir St,47.029469,-122.876923,764
765,22nd Ave at Boundary St,47.029625,-122.883545,765
766,22nd Ave at Myrtle Pl,47.029057,-122.866447,766
767,22nd Ave at Brown St,47.029076,-122.870079,767
768,22nd Ave at Wilson St,47.029453,-122.873863,768
769,Adams St at Legion Ave,47.043686,-122.897690,769
77,Capitol Blvd at Dennis St,46.987572,-122.907867,77
770,Adams St at 4th Ave,47.045391,-122.897911,770
771,Boulevard Rd at 24th Ave,47.027859,-122.865051,771
772,Boulevard Rd at 28th Ave,47.025005,-122.865044,772
773,Boulevard Rd at 31st Ct,47.020386,-122.865074,773
774,Boulevard Rd at Morse-Merryman Rd,47.017441,-122.865120,774
775,Boulevard Rd at Boulevard Park Ct,47.009361,-122.865120,775
776,Boulevard Rd at 36th Ave,47.015900,-122.865128,776
777,Wilderness Dr at Boulevard Rd,47.008022,-122.863838,777
778,Eastside St at 18th Ave,47.033062,-122.886780,778
779,Eastside St at 12th Ave,47.037769,-122.887260,779
78,Indian Creek Apts,46.985485,-122.909538,78
780,Union Ave at Eastside St,47.039909,-122.888168,780
781,Union Ave at Cherry St,47.039513,-122.893967,781
782,Union Ave at Plum St,47.039719,-122.890892,782
783,Abalon Pointe Apts,47.042439,-122.928322,783
784,Crosby Blvd at Westbury Lane,47.020882,-122.926132,784
785,Barnes Blvd at Blue Sky Dr,47.016520,-122.918130,785
786,Kaiser Rd at Driftwood Rd,47.072102,-122.955750,786
787,Linwood Ave at G St,47.007370,-122.916389,787
788,Yelm Ave at 3rd St,46.940773,-122.604210,788
789,Sleater Kinney Rd at 21st Ave,47.028259,-122.833702,789
79,Israel Rd at New Market St,46.985477,-122.913239,79
790,Israel Rd at Linderson Way,46.985336,-122.920609,790
791,Evergreen Park,47.029633,-122.920708,791
792,Evergreen Park,47.029202,-122.920914,792
793,Martin Way at Galaxy Dr,47.055901,-122.768341,793
794,Kasey Keller Dr,47.047974,-122.831100,794
795,Martin Way Park & Ride,47.049870,-122.815125,795
796,4th Ave at Simmons St,47.044563,-122.907219,796
797,State Ave at Columbia St,47.045712,-122.902855,797
798,4th Ave at Simmons St,47.044472,-122.906227,798
799,Israel Rd at Linderson Way,46.985485,-122.920067,799
8,Capitol Way at 24th Ave,47.027458,-122.900909,8
80,Tumwater High School,46.985531,-122.916290,80
800,Deschutes Pkwy at 5th Ave,47.043091,-122.910980,800
801,Deschutes Pkwy at 5th Ave,47.043198,-122.910957,801
802,5th Ave at Deschutes Pkwy,47.043552,-122.907532,802
803,Cooper Point Rd at Caton Way,47.029358,-122.927917,803
804,Cooper Point Rd at Caton Way,47.029179,-122.928986,804
806,2803 Wilderness Dr,47.007645,-122.860291,806
807,Wilderness Dr at Wilderness Loop,47.007359,-122.856461,807
808,Wilderness Dr at Donnelly Dr,47.005367,-122.852486,808
809,Donnelly Dr at Canady Ct,47.004260,-122.852840,809
81,Custer Way at Schmidt Pl,47.016781,-122.902512,81
810,Donnelly Dr at Edgeworth Dr,47.003017,-122.848259,810
811,Donnelly Dr at Wiggins Rd,47.002705,-122.844627,811
812,Yelm Ave at Clark Rd,46.939079,-122.601128,812
813,Donnelly Dr at Wiggins Rd,47.002819,-122.845367,813
814,Donnelly Dr at Edgeworth Dr,47.003090,-122.848885,814
815,Donnelly Dr at Canady Ct,47.004450,-122.852630,815
816,Wilderness Dr at Donnelly Dr,47.005386,-122.852371,816
817,Wilderness Dr at Wilderness Ct,47.007446,-122.856514,817
818,2808 Wilderness,47.007664,-122.860428,818
819,Pacific Ave at Carpenter Rd,47.037693,-122.799782,819
82,2nd ave at Division St,47.015026,-122.906807,82
820,Pacific Ave at Lake Lois Rd,47.040192,-122.793915,820
821,Pacific Ave at Kinwood St,47.040901,-122.790932,821
822,Pacific Ave at Ranger Dr,47.041801,-122.784760,822
823,Pacific Ave at Union Mills Rd,47.042088,-122.780685,823
824,Pacific Ave at Skyridge St,47.040363,-122.775459,824
825,Pacific Ave at Marvin Rd,47.039371,-122.767441,825
826,Marvin Rd at Scarlet Oak Dr,47.037067,-122.765022,826
827,Marvin Rd at 19th Ave,47.029663,-122.764946,827
828,Marvin Rd at 25th Ave,47.024654,-122.767471,828
829,Lake Forest Dr at Fordham Ct,47.019989,-122.762680,829
83,2nd Ave at C St,47.013714,-122.906845,83
830,Lake Forest Dr at Duke Ct,47.018211,-122.763077,830
831,Lake Forest Dr at Lake Forest Ct,47.014221,-122.762154,831
832,Lake Forest Dr at Carnegie Dr,47.014183,-122.758484,832
833,Marvin Rd at 44th Ave,47.007500,-122.754448,833
834,Marvin Rd at Mullen Rd,47.003784,-122.754494,834
835,Mullen Rd at Archer Dr,47.003204,-122.748596,835
836,Tri-Lake Drive at Tri-Lake Loop,47.001751,-122.741707,836
837,Mullen Rd at Tri-Lake Dr,47.003269,-122.742226,837
838,Mullen Rd at Indian Summer Dr,47.003277,-122.750221,838
839,Marvin Rd at Mullen Rd,47.003742,-122.754318,839
84,2nd Ave at I St,47.008087,-122.908661,84
840,Marvin Rd at 44th Ave,47.007748,-122.754280,840
841,Lake Forest Dr at Carnegie Dr,47.014099,-122.759109,841
842,Lake Forest Dr at Creighton Ct,47.013855,-122.760521,842
843,Lake Forest Dr at Marquette Dr,47.017231,-122.762863,843
844,Lake Forest Dr at Fordham Ct,47.019779,-122.762848,844
845,Marvin Rd at Terri Ct,47.026398,-122.766792,845
846,Marvin Rd at 19th Ave,47.029587,-122.764725,846
847,Marvin Rd at Sweetbriar Ln,47.035713,-122.764755,847
848,Pacific Ave at Burwood St,47.039543,-122.769989,848
849,Pacific Ave at Oakcrest Dr,47.040565,-122.775818,849
85,7th Ave at I St,47.008842,-122.912842,85
850,Pacific Ave at Steilacoom Rd,47.041935,-122.779694,850
851,Pacific Ave at Ranger Dr,47.041824,-122.785614,851
852,Pacific Ave at Kinwood Dr,47.041004,-122.791916,852
853,Pacific Ave at Lake Lois Rd,47.040100,-122.794533,853
854,Pacific Ave at Bowker Rd,47.037071,-122.810318,854
855,St. Martin's University,47.037224,-122.816391,855
856,Pacific Ave at College St,47.037716,-122.824982,856
857,Lacey Walmart,47.058956,-122.769257,857
858,4th Ave at Chestnut St,47.045330,-122.894470,858
859,Yelm Ave at Solberg St,46.944614,-122.611504,859
86,Barnes Blvd at Vista Loop,47.015472,-122.915138,86
860,Mullen Rd at Carpenter Rd Extension,47.004635,-122.781097,860
867,Capitol Way at 21st Ave,47.029892,-122.900917,867
868,Capitol Way at State Ave,47.046001,-122.901756,868
869,Columbia St at State Ave,47.045914,-122.903160,869
87,Barnes Blvd at Ridgeview Loop,47.018990,-122.922569,87
870,Lacey Blvd at Ruddell Rd,47.034779,-122.818703,870
871,Legion Ave at Central St,47.044315,-122.881401,871
872,Legion Ave at Central St,47.044395,-122.881287,872
873,Israel Rd at Old Israel Rd,46.985725,-122.926323,873
874,Israel Rd at Old Israel Rd,46.985832,-122.926559,874
875,Tumwater Blvd at New Market St,46.979607,-122.915520,875
876,Pacific Ave at Webb St,47.037250,-122.820270,876
877,Miller Ave at Marion St,47.061985,-122.880324,877
878,Kenyon St at Harrison Ave,47.045155,-122.934387,878
879,Tumwater Blvd at Cleanwater Dr,46.982109,-122.906944,879
88,South Puget Sound Community College,47.023220,-122.929276,88
880,Marvin Rd at 15th Ave,47.033249,-122.764954,880
881,Marvin Rd at 15th Ave,47.033424,-122.764687,881
882,Marvin Rd at Walthew St,47.021301,-122.764069,882
883,Marvin Rd at Walthew St,47.022781,-122.766029,883
884,Lake Forest Dr at Oxford Dr,47.014175,-122.755539,884
885,Lake Forest Dr at Oxford Dr,47.014435,-122.756104,885
886,Martin Way at Carpenter Rd,47.050507,-122.797203,886
887,Martin Way at Kinwood St,47.051441,-122.791901,887
890,North St at Henderson Blvd,47.016636,-122.879791,890
891,2nd Ave at F St,47.011009,-122.906807,891
892,2nd Ave at E St,47.011539,-122.906647,892
893,Tumwater Square,47.018105,-122.898788,893
898,Pacific Ave at Ulery St,47.036892,-122.804474,898
899,Nisqually Plaza,46.936256,-122.595825,899
9,Capitol Blvd at O'Farrell Ave,47.023491,-122.896332,9
901,Corporate Center Dr at Tiffani Lane,47.000011,-122.826118,901
902,Marvin Rd at 22nd Ave,47.027576,-122.766487,902
903,Sleater Kinney Rd at Circle Ln,47.032833,-122.833694,903
904,Golf Club Rd at 21st Ave,47.028145,-122.828575,904
905,Yelm Hwy at Rainier Rd,46.996136,-122.822212,905
906,Balustrade Blvd at 66th Ave,46.987671,-122.803368,906
907,Balustrade Blvd at 66th Ave,46.987644,-122.803940,907
908,Littlerock Rd at Miner Dr,46.986266,-122.931540,908
909,Puget St at State Ave,47.047134,-122.887215,909
91,RW Johnson Blvd at 29th Ave,47.020542,-122.939346,91
910,Yelm Hwy at Englewood Dr,46.985390,-122.746277,910
911,Yelm Hwy at Englewood Dr,46.985561,-122.747147,911
912,Yelm Ave at 103rd Ave,46.938148,-122.599365,912
913,Nisqually Plaza,46.936508,-122.596710,913
914,Yelm Ave at Bald Hill Rd,46.933040,-122.589550,914
915,103rd Ave at Grove Rd,46.938183,-122.584053,915
916,103rd Ave at Creek St,46.938354,-122.589211,916
917,Wiggins Rd at Landview Dr,47.001354,-122.844299,917
918,Union Ave at Fir St,47.040058,-122.876999,918
919,Union Ave at Fir St,47.040138,-122.876999,919
92,Family Court Building,47.017986,-122.942200,92
920,Yelm Ave at Clark Rd,46.939091,-122.601501,920
921,Balustrade Blvd at Radius Lp,46.985168,-122.810760,921
922,Yelm Hwy at Henderson Blvd,47.003433,-122.879990,922
927,Pacific Hwy at Bridgeport Way,47.149746,-122.503426,927
929,SR512 Park & Ride,47.160919,-122.483109,929
93,RW Johnson Blvd at Somerset Hill Dr,47.019230,-122.939156,93
939,Capitol Blvd at Tumwater Blvd,46.984818,-122.906647,939
94,RW Johnson Blvd at 27th Ave,47.023808,-122.939102,94
940,Friendly Grove Park,47.065872,-122.871368,940
941,4th Ave at Water St,47.044594,-122.904648,941
942,RW Johnson Blvd at 29th Ave,47.022209,-122.939140,942
944,Rainier Vista Park,47.003620,-122.808075,944
945,Ruddell Rd at 25th Ave,47.025623,-122.810684,945
946,Pacific at Bismarck Ln,47.038204,-122.798637,946
947,Pacific Ave at Ulery St,47.037041,-122.805016,947
948,Wiggins Rd at Yelm Hwy,46.999268,-122.844414,948
949,Wiggins Rd at 55th Ct,46.999306,-122.844284,949
95,RW Johnson Blvd at 37th Ave,47.014297,-122.940860,95
950,Capitol Way at 14th Ave,47.035168,-122.900932,950
951,Capitol Way at Olympia Ave,47.046349,-122.902000,951
96,Accountability & Restitution Center,47.015266,-122.944397,96
962,Capitol Way at 5th Ave,47.044170,-122.901520,962
964,Yelm Hwy at Ronald Lane,46.996174,-122.825798,964
966,Cooper Point Rd at Limited Ln,47.048779,-122.941422,966
967,7th Ave at Ebbets Dr,47.011322,-122.913025,967
970,Meridian Rd at Orion Dr,47.068291,-122.741417,970
978,1145 Galaxy Dr,47.057102,-122.769287,978
979,Rainier Rd at Rainier Lp,46.995049,-122.823334,979
980,Rainier Rd at 66th Ave,46.988659,-122.823135,980
981,Balustrade Blvd at Compass St,46.986858,-122.819992,981
982,Balustrade Blvd at Prism St,46.986866,-122.816299,982
983,Balustrade Blvd at Flute St,46.985909,-122.813156,983
984,Balustrade Blvd at Ruddell Rd,46.986481,-122.806015,984
985,Balustrade Blvd at Delaware Ave,46.990013,-122.800054,985
986,Balustrade Blvd at Delaware Ave,46.990191,-122.800185,986
987,Balustrade Blvd at Ruddell Rd,46.986729,-122.806015,987
988,Balustrade Blvd at Breeze Dr,46.985401,-122.811516,988
989,Balustrade Blvd at Prism St,46.987053,-122.816048,989
990,Balustrade Blvd at Compass St,46.987057,-122.819763,990
991,Rainier Rd at 66th Ave,46.988930,-122.823006,991
992,Rainier Rd at Rainier Loop,46.994686,-122.823105,992
994,Corporate Center Dr at Yelm Hwy,46.996948,-122.828445,994
995,Corporate Center Dr at College St,47.000340,-122.824356,995
996,Tumwater Blvd at Capitol Blvd,46.983456,-122.904518,996
997,Israel Rd at Nikolas St,46.985458,-122.904114,997
998,5th Ave at Linwood Ave,47.007507,-122.910431,998
999,Yelm Walmart,46.933628,-122.579292,999
